lat,lon,alt,height,heading,pitch,roll,time,co2,tvoc,pm25,pm10,temperature,humidity
24.8074662688802,121.04205283046551,51.91155250810486,0,-133.5,0,0,20210518105246,785,214,32,39,33.3,64.3
24.80746647580991,121.0420530006716,51.911552508104876,0,-133.5,0,0,20210518105247,0,0,0,0,0,0
24.80746649857028,121.04205327756131,51.91155250810486,0,-133.5,0,0,20210518105248,754,197,32,39,33.3,63.8
24.80746678688202,121.0420532432347,51.911552508104876,0,-133.5,0,0,20210518105249,0,0,0,0,0,0
24.80746688240049,121.04205334226766,51.91155250810486,0,-133.5,0,0,20210518105250,743,191,32,39,33.3,63.6
24.807466964112443,121.0420534551231,51.911552508104876,0,-133.5,0,0,20210518105251,0,0,0,0,0,0
24.807466719516814,121.0420534154736,51.911552508104876,0,-133.5,0,0,20210518105252,740,189,31,38,33.3,63.4
24.80746651772491,121.04205331124061,51.911552508104876,0,-133.5,0,0,20210518105253,0,0,0,0,0,0
24.80746626053734,121.04205356930422,51.91155250810486,0,-133.5,0,0,20210518105254,727,182,31,38,33.3,63.4
24.807466167825137,121.042053496311,51.911552508104876,0,-133.5,0,0,20210518105255,0,0,0,0,0,0
24.80746608152859,121.0420535843964,51.911552508104876,0,-133.5,0,0,20210518105256,724,180,32,39,33.3,63.3
24.80746588100967,121.04205401969901,51.90155250794065,-0.0100000001642116,-131.35,0,0,20210518105257,0,0,0,0,0,0
24.807465256566932,121.04205496922603,51.831552506791134,-0.08000000131369281,-132.91,0,0,20210518105258,727,182,32,39,33.3,63.3
24.807464814620143,121.04205603843957,51.75599694999483,-0.1555555581099584,-133.1,0,0,20210518105259,0,0,0,0,0,0
24.807464196530667,121.042057279103,51.86155250728373,-0.05000000082105803,-133.13,0,0,20210518105300,733,185,33,41,33.3,63.3
24.807463115116413,121.0420590787021,52.65155251876625,0.7400000106615434,-152.07,0,0,20210518105301,0,0,0,0,0,0
24.807459305242656,121.04206010985746,52.70044140084178,0.7888888927370955,172.5,0,0,20210518105302,731,184,33,41,33.3,63.3
24.807454667552868,121.04206390876682,52.88155250242665,0.9699999943218426,163.1,0,0,20210518105303,0,0,0,0,0,0
24.807443222563787,121.0420710456204,53.161552510004725,1.2500000019,154.28,0,0,20210518105304,709,172,33,41,33.2,63.1
24.807441007796264,121.04207435361498,53.9415525183429,2.0300000102381577,151.03,0,0,20210518105305,0,0,0,0,0,0
24.80744053702578,121.04207461993444,54.867108031065335,2.9555555229606614,150.12222222222226,0,0,20210518105306,655,142,33,41,32.7,63.3
24.807440726318596,121.04207399628301,55.01155241744922,3.099999909344561,149.7,0,0,20210518105307,0,0,0,0,0,0
24.8074420660311,121.04207394273755,54.967108015322836,3.0555555072180898,149.4666666666667,0,0,20210518105308,580,100,34,42,32.4,63.9
24.80744331435274,121.0420729341088,54.941552484100164,3.0299999759953686,149.27000000000004,0,0,20210518105309,0,0,0,0,0,0
24.807443574565163,121.0420719418722,54.941552484100164,3.0299999759953677,149.13999999999996,0,0,20210518105310,504,58,34,42,32.3,64.6
24.807443369864945,121.04207137792567,54.91155251266486,3.00000000456,149.1,0,0,20210518105311,0,0,0,0,0,0
24.80744331600903,121.042070877843,55.011552512816735,3.1000000047119944,149.02,0,0,20210518105312,441,23,34,42,32.2,65
24.80744298596976,121.04207086642597,55.17155255120688,3.26000004310217,148.94000000000003,0,0,20210518105313,0,0,0,0,0,0
24.80744267071776,121.0420704367709,55.33155258959714,3.4200000814923515,148.88,0,0,20210518105314,421,12,35,43,32.1,65.4
24.80744274182377,121.04206968915943,55.4004414128932,3.4888889047883826,148.79999999999998,0,0,20210518105315,0,0,0,0,0,0
24.807443346924963,121.04206929985742,55.511552418209206,3.59999991010456,148.79999999999998,0,0,20210518105316,423,13,35,43,32,65.8
24.80744319282807,121.04206955858919,55.521552432529525,3.609999924424874,148.79999999999998,0,0,20210518105317,0,0,0,0,0,0
24.80744316712732,121.0420700707964,55.54155246117016,3.629999953065503,148.79999999999998,0,0,20210518105318,425,14,35,43,31.8,66.2
24.807443192939548,121.04207032324518,55.551552475490475,3.639999967385817,148.75000000000003,0,0,20210518105319,0,0,0,0,0,0
24.80744330199304,121.04207064342167,55.43377471448806,3.5222222063832365,148.70000000000002,0,0,20210518105320,427,15,35,43,31.5,66.8
24.807443423120866,121.04207072715644,55.422663613956466,3.5111111058516187,141.01111111111112,0,0,20210518105321,0,0,0,0,0,0
24.80744380339393,121.04207033790631,55.391552532467905,3.4800000243630884,81.9,0,0,20210518105322,428,16,35,43,31.4,67.5
24.807443602675175,121.0420698817622,55.4015525229464,3.490000014841545,49.160000000000004,0,0,20210518105323,0,0,0,0,0,0
24.807445468908032,121.04207145994948,55.41155251342487,3.500000005320001,43.66,0,0,20210518105324,430,17,34,42,31.3,68.1
24.807446975690677,121.04207239756667,55.41155251342487,3.500000005320001,43.27777777777777,0,0,20210518105325,0,0,0,0,0,0
24.80744165304821,121.0420658090256,55.461552465817036,3.5499999577122803,49.11,0,0,20210518105326,418,10,34,42,31.1,68.5
24.807442942834808,121.04206537170539,55.41155251342487,3.500000005320001,71.82,0,0,20210518105327,0,0,0,0,0,0
24.807446814319164,121.04206419306472,55.4515524753386,3.5399999672338245,73.21999999999998,0,0,20210518105328,419,11,33,41,31,69
24.80743927933314,121.04206617752274,55.41155251342487,3.500000005320001,73.63749999999999,0,0,20210518105329,0,0,0,0,0,0
24.80743747930197,121.04206721993671,55.44155248486017,3.529999976755369,105.76999999999998,0,0,20210518105330,421,12,32,39,30.9,69.5
24.807436801333,121.042067110484,55.4815524467739,3.5699999386691923,126.57000000000001,0,0,20210518105331,0,0,0,0,0,0
24.807436775976168,121.04206728342868,55.531552446849844,3.6199999387451887,127.30999999999999,-0.97,0,20210518105332,423,13,32,39,30.8,69.9
24.807436934453598,121.04206769675629,55.59155253277174,3.6800000246670748,127.4,-34.31999999999999,0,20210518105333,0,0,0,0,0,0
24.80743713575468,121.04206786784101,55.47821911661443,3.566666608509708,127.39999999999999,-54.911111111111104,0,20210518105334,425,14,31,38,30.7,70.3
24.80743767624582,121.04206781519702,55.44155248486017,3.529999976755369,127.44000000000001,-54.90999999999999,0,20210518105335,0,0,0,0,0,0
24.807437701148444,121.04206741284631,55.50044131767762,3.5888888095729423,127.5,-54.89999999999999,0,20210518105336,427,15,30,37,30.7,70.6
24.80743734996148,121.04206732270478,55.48933021714602,3.5777777090413245,127.5111111111111,-54.93333333333332,0,20210518105337,0,0,0,0,0,0
24.80743761748683,121.04206723537429,55.51155244205109,3.599999933946419,127.6,-54.95,0,20210518105338,428,16,29,36,30.6,70.8
24.807438250734286,121.04206773347059,56.071552504891145,4.159999996786456,127.68000000000002,-54.92999999999999,0,20210518105339,0,0,0,0,0,0
24.80743803395357,121.04206892326178,58.811552518592734,6.900000010487999,127.70000000000002,-54.89999999999999,0,20210518105340,418,10,28,34,30.6,71
24.807434838105788,121.0420675657539,62.0115525870351,10.100000078930293,127.84444444444443,-54.89999999999999,0,20210518105341,0,0,0,0,0,0
24.80743427813735,121.0420682867971,64.45155248901862,12.53999998091383,127.97,-54.89999999999999,0,20210518105342,419,11,27,33,30.5,71.1
24.80743559368676,121.0420688287362,66.1215526632184,14.210000155113605,128,-54.90999999999999,0,20210518105343,0,0,0,0,0,0
24.80743669171329,121.04206904229656,66.82266351472428,14.911111006619429,127.95555555555555,-54.93333333333332,0,20210518105344,421,12,27,33,30.5,71.3
24.80743664376491,121.042070016202,66.97155266451045,15.060000156405605,116.59,-54.89999999999999,0,20210518105345,0,0,0,0,0,0
24.80743684633553,121.04207204506767,67.0215528553213,15.11000034721647,101.56,-54.95,0,20210518105346,423,13,27,33,30.5,71.4
24.80743557527328,121.0420911311739,67.11155243584132,15.199999927736581,98.35,-54.989999999999995,0,20210518105347,0,0,0,0,0,0
24.80743154612716,121.04213885574241,66.98155251193775,15.070000003832922,97.07,-54.959999999999994,0,20210518105348,0,0,0,0,0,0
24.807426749957052,121.04220117292668,66.96155272171572,15.050000213610865,96.55,-54.919999999999995,0,20210518105349,0,0,0,0,0,0
24.80742155973162,121.0422623921806,66.96155272171572,15.050000213610867,96.32,-54.95,0,20210518105350,427,15,27,33,30.4,71.2
24.80741696405967,121.04232080775945,67.00044175901306,15.088889250908203,96.18888888888891,-54.96666666666667,0,20210518105351,0,0,0,0,0,0
24.807412889278808,121.04238135016966,66.9226636844184,15.011111176313527,96.10000000000001,-54.93333333333333,0,20210518105352,428,16,28,34,30.3,71.3
24.807408645453247,121.0424420535189,66.82155218744533,14.90999967934045,96.02000000000001,-54.92999999999999,0,20210518105353,0,0,0,0,0,0
24.807404442323026,121.04249808216477,66.81155214928316,14.899999641178276,96,-54.949999999999996,0,20210518105354,430,17,28,34,30.2,71.5
24.80739996382747,121.04255836139671,66.91155253090487,15.000000022800002,96,-54.90999999999999,0,20210518105355,0,0,0,0,0,0
24.807396969218356,121.04258856087888,66.91155253090487,15.0000000228,96.05555555555557,-54.911111111111104,0,20210518105356,418,10,29,36,30.1,71.8
24.80739695041239,121.04259373942159,67.07155256929495,15.160000061190184,96.63000000000001,-54.89999999999999,0,20210518105357,0,0,0,0,0,0
24.80739675691609,121.04259623022071,66.95155268355356,15.040000175448695,136.58999999999997,-54.92999999999999,0,20210518105358,419,11,30,37,30,72.1
24.807397341443036,121.04259654022387,66.98933060549953,15.077778097394678,-57.96666666666667,-54.92222222222222,0,20210518105359,0,0,0,0,0,0
24.8073920145927,121.04259454267502,66.91155261760252,15.000000109497671,-167.5727272727273,-55,0,20210518105400,421,12,31,38,29.9,72.5
24.807358263680037,121.04258183583231,66.89155245458055,14.979999946475658,-163.76000000000002,-55,0,20210518105401,0,0,0,0,0,0
24.807307159230092,121.04256361245588,66.98655281712115,15.075000309016298,-162.6625,-54.9875,0,20210518105402,423,13,32,39,29.9,72.8
24.807260226694435,121.0425469309718,66.98933039357188,15.077777885467054,-162.44444444444446,-55,0,20210518105403,0,0,0,0,0,0
24.80720760913402,121.04252825779172,66.98155270267263,15.07000019456778,-162.38000000000002,-55,0,20210518105404,425,14,33,41,29.9,73
24.80715343710498,121.04250910311745,66.84488571578753,14.933333207682667,-162.29999999999998,-55,0,20210518105405,0,0,0,0,0,0
24.807101728806828,121.04249158066325,66.78655229229626,14.874999784191425,-162.29999999999998,-55,0,20210518105406,427,15,34,42,30,73
24.80705239552766,121.04247449291799,66.80044110173343,14.888888593628565,-162.29999999999998,-55,0,20210518105407,0,0,0,0,0,0
24.80700117213864,121.04245713411538,66.76609786385242,14.854545355747645,-162.29999999999998,-55,0,20210518105408,428,16,35,43,30,72.9
24.806946864987108,121.04243849914928,66.82155218744532,14.90999967934045,-162.29999999999998,-55,0,20210518105409,0,0,0,0,0,0
24.80689619393286,121.04242068784338,66.84155235913711,14.929999851032228,-162.29999999999998,-55,0,20210518105410,418,10,35,43,30,72.9
24.806846597586844,121.04240303304599,66.9226636844184,15.011111176313527,-162.29999999999998,-55,0,20210518105411,0,0,0,0,0,0
24.80679293429383,121.0423846806066,66.80155230185582,14.88999979375097,-162.26000000000002,-55,0,20210518105412,419,11,36,44,30,72.9
24.80674154079407,121.0423664208627,66.82155256891498,14.910000060810182,-162.20000000000002,-55,0,20210518105413,0,0,0,0,0,0
24.806690952281837,121.04234851720791,66.8337746682378,14.922222160132954,-162.1222222222222,-55,0,20210518105414,421,12,36,44,29.9,72.9
24.806639068060857,121.04233043543488,66.83155232097492,14.919999812870055,-162.09999999999997,-55,0,20210518105415,0,0,0,0,0,0
24.80658904708669,121.04231167384441,66.83155222560748,14.919999717502622,-162.09999999999997,-55,0,20210518105416,423,13,37,46,29.9,73.1
24.8065395711957,121.04229449426745,67.04488584324803,15.133333335143245,-162.11111111111111,-55,0,20210518105417,0,0,0,0,0,0
24.806486756728763,121.04227758317029,67.13155251216564,15.220000004060926,-162.09999999999997,-55,0,20210518105418,425,14,37,46,29.9,73.1
24.80643432549073,121.04225917813491,67.00155268362953,15.090000175524695,-162.09999999999997,-55,0,20210518105419,0,0,0,0,0,0
24.80638172325823,121.04224171117183,67.01155262642426,15.100000118319437,-162.09999999999997,-55,0,20210518105420,427,15,37,46,29.9,73.5
24.806331012157298,121.0422227244582,66.9015524927427,14.989999984637834,-162.12,-55,0,20210518105421,0,0,0,0,0,0
24.80627891149601,121.04220512525812,66.83155241634233,14.919999908237488,-162.11999999999998,-55,0,20210518105422,428,16,37,46,29.8,73.5
24.80623027815528,121.04218820906901,66.64488580025443,14.733333292149709,-162.13333333333333,-55,0,20210518105423,0,0,0,0,0,0
24.806181596797877,121.04217131354969,66.58155251132968,14.670000003224903,-162.23999999999998,-55,0,20210518105424,418,10,37,46,29.7,73.7
24.806127084261096,121.04215355773718,66.64791611484902,14.736363606744307,-162.27272727272728,-55,0,20210518105425,0,0,0,0,0,0
24.806076096619414,121.04213686169729,66.74012398646344,14.82857147835871,-162.20000000000002,-55,0,20210518105426,419,11,37,46,29.8,73.8
24.80602894132303,121.04212065082255,66.82266330279667,14.911110794691801,-162.20000000000002,-55,0,20210518105427,0,0,0,0,0,0
24.80597548673083,121.04210185049519,66.98155279804007,15.070000289935212,-162.20000000000002,-55,0,20210518105428,421,12,36,44,29.8,73.9
24.805920919211335,121.04208206194888,66.94905267401302,15.037500165908149,-162.20000000000002,-55,0,20210518105429,0,0,0,0,0,0
24.805867858607343,121.04206343244778,66.82266330279667,14.911110794691801,-162.27777777777774,-55,0,20210518105430,423,13,35,43,29.7,73.9
24.805818720241696,121.04204628444762,66.98655281712115,15.075000309016298,-162.29999999999998,-55,0,20210518105431,0,0,0,0,0,0
24.80576609458568,121.0420288916192,67.08155251208969,15.170000003984924,-162.29999999999998,-55,0,20210518105432,425,14,35,43,29.7,74
24.805712793983776,121.04201080651988,66.94488599144543,15.03333348334058,-162.29999999999998,-55,0,20210518105433,0,0,0,0,0,0
24.805666311458314,121.04199431933374,66.8115523877017,14.899999879596857,-162.29999999999998,-55,0,20210518105434,427,15,34,42,29.6,74.1
24.80561550719475,121.04197611941572,66.69155264501123,14.780000136906528,-162.37000000000003,-55,0,20210518105435,0,0,0,0,0,0
24.805560833291597,121.041957550376,66.73882529259399,14.827272784489258,-162.29999999999998,-55,0,20210518105436,428,16,34,42,29.5,74.2
24.805513595221793,121.04194233456866,66.74488575802098,14.833333249916185,-162.29999999999998,-55,0,20210518105437,0,0,0,0,0,0
24.80549419994599,121.04193689037682,66.73155241619025,14.819999908085485,-162.34000000000003,-55,0,20210518105438,430,17,34,42,29.4,74.5
24.80549447269082,121.0419371811929,66.83155222560748,14.919999717502622,-162.45,-55,0,20210518105439,0,0,0,0,0,0
24.80549495635695,121.04193643734261,66.91155253090487,15.000000022800002,-126.03,-54.989999999999995,0,20210518105440,418,10,34,42,29.3,74.8
24.80549618922192,121.0419358622765,66.82155218744532,14.90999967934045,-79.94999999999999,-55,0,20210518105441,0,0,0,0,0,0
24.805501922116008,121.0419161181504,66.98155260730519,15.07000009920035,-73.36999999999998,-55,0,20210518105442,419,11,34,42,29.4,75.1
24.805515856804814,121.04187032961967,67.28933016090747,15.377777652802665,-71.45555555555555,-55,0,20210518105443,0,0,0,0,0,0
24.805534518049267,121.04181272313069,67.23377481719511,15.322222309090293,-70.63333333333334,-55,0,20210518105444,421,12,34,42,29.5,75.2
24.80555291378351,121.04176021347826,66.97405276941844,15.06250026131358,-70.38749999999999,-55,0,20210518105445,0,0,0,0,0,0
24.805572661475,121.04170202050554,66.99337093826132,15.081818430156476,-70.12727272727273,-55,0,20210518105446,423,13,34,42,29.5,75.1
24.805592274025308,121.0416425987361,66.98155270267263,15.07000019456778,-69.78999999999999,-55,0,20210518105447,0,0,0,0,0,0
24.805611602410135,121.04158409995733,66.65599684780416,14.74444433969942,-69.75555555555556,-55,0,20210518105448,425,14,35,43,29.5,75
24.805628378492543,121.04153321963243,66.7893300541837,14.877777546078852,-69.7,-55,0,20210518105449,0,0,0,0,0,0
24.805647377943806,121.04147745747545,66.92973441847245,15.018181910367588,-69.68181818181819,-55,0,20210518105450,427,15,35,43,29.4,75
24.80566636609957,121.04142265958228,66.88298099329867,14.971428485193792,-69.62857142857145,-55,0,20210518105451,0,0,0,0,0,0
24.805685482224803,121.04136715517146,66.87821907036431,14.966666562259427,-69.60000000000001,-55,0,20210518105452,428,16,35,43,29.4,75
24.80570495435145,121.04130923562265,66.92973441847245,15.01818191036759,-69.60000000000001,-55,0,20210518105453,0,0,0,0,0,0
24.80572455157526,121.04125033219788,66.98933060549953,15.077778097394678,-69.60000000000001,-55,0,20210518105454,418,10,35,43,29.3,75.2
24.805743305280558,121.04119458589159,66.96155272171572,15.050000213610867,-69.60000000000001,-55,0,20210518105455,0,0,0,0,0,0
24.805761747355273,121.04114076386233,66.94488599144545,15.033333483340577,-69.60000000000001,-55,0,20210518105456,419,11,36,44,29.3,75.4
24.805780544528417,121.04108559087521,66.97518913739141,15.063636629286556,-69.58181818181819,-54.99090909090909,0,20210518105457,0,0,0,0,0,0
24.80579952668859,121.04102977206824,66.98933049953571,15.077777991430867,-69.5888888888889,-55,0,20210518105458,421,12,36,44,29.3,75.5
24.80581682165317,121.04097790134112,67.12155237863604,15.209999870531325,-69.5,-55,0,20210518105459,0,0,0,0,0,0
24.805836349996447,121.0409194186321,67.16710810804148,15.25555559993678,-69.5,-55,0,20210518105500,423,13,36,44,29.3,75.7
24.80585489639632,121.04086435926503,67.11155268726455,15.200000179159806,-69.5,-55,0,20210518105501,0,0,0,0,0,0
24.80587391802862,121.04080933801144,66.82266340876048,14.911110900655615,-69.5,-55,0,20210518105502,425,14,36,44,29.3,75.7
24.805884346543458,121.04078018063599,66.70044135589447,14.788888847789718,-69.45555555555555,-55,0,20210518105503,0,0,0,0,0,0
24.805886115702396,121.04077643260182,66.92155256906705,15.010000060962176,-69.39999999999999,-55,0,20210518105504,427,15,36,44,29.3,75.8
24.8058852959104,121.04077731382056,66.83377445631021,14.922221948205326,-70.45555555555556,-55,0,20210518105505,0,0,0,0,0,0
24.80588705438442,121.0407629162097,66.96155262634828,15.050000118243434,-73.84,-55,0,20210518105506,428,16,36,44,29.3,75.8
24.805894655054274,121.04071879422239,67.1865526266902,15.275000118585439,-75.2875,-55,0,20210518105507,0,0,0,0,0,0
24.80590530911136,121.0406603826215,67.35155258879408,15.440000080689263,-76.51,-55,0,20210518105508,430,17,36,44,29.4,75.7
24.80591663332916,121.04060183191113,66.83655236389785,14.924999855792997,-77.3375,-55,0,20210518105509,0,0,0,0,0,0
24.805928484167477,121.0405382787261,66.56155262574022,14.650000117635425,-77.8,-55,0,20210518105510,418,10,35,43,29.4,75.6
24.8059386256998,121.04048162487749,66.51155255413867,14.600000046033852,-78.07500000000002,-55,0,20210518105511,0,0,0,0,0,0
24.805948611167857,121.04042370464799,66.51155291176657,14.600000403661726,-78.27777777777777,-55,0,20210518105512,419,11,35,43,29.5,75.5
24.805957900321932,121.04036814500176,66.71155240344419,14.799999895339427,-78.36666666666665,-55,0,20210518105513,0,0,0,0,0,0
24.805968447673514,121.04031133478989,66.72155237802814,14.80999986992331,-78.45,-55,0,20210518105514,421,12,35,43,29.5,75.4
24.805974803692223,121.04028386780766,66.64488590621832,14.733333398113528,-78.54444444444445,-55,0,20210518105515,0,0,0,0,0,0
24.80597602206361,121.04028147593698,66.76710795908421,14.855555450979434,-78.61111111111113,-55,0,20210518105516,423,13,34,42,29.5,75.4
24.805976015438414,121.0402820708865,66.77405236380281,14.862499855698001,-65.5625,-55,0,20210518105517,0,0,0,0,0,0
24.80597764435399,121.0402828924186,66.72155266413031,14.81000015602562,-0.6100000000000004,-55,0,20210518105518,425,14,34,42,29.5,75.4
24.805993468525337,121.0402869484009,66.74155254971984,14.8300000416151,9.580000000000002,-55,0,20210518105519,0,0,0,0,0,0
24.806037083737547,121.0402973753942,66.87155237825621,14.959999870151313,10.559999999999999,-55,0,20210518105520,427,15,34,42,29.4,75.3
24.806088126209602,121.04031000103757,67.05599710272539,15.144444594620584,11.077777777777778,-55,0,20210518105521,0,0,0,0,0,0
24.80613845966367,121.04032237468458,66.96609819360762,15.054545685502763,11.627272727272727,-55,0,20210518105522,428,16,33,41,29.5,75.3
24.806192049354078,121.04033661654388,66.82266330279667,14.911110794691801,12.066666666666666,-55,0,20210518105523,0,0,0,0,0,0
24.806245154253187,121.04035088782857,66.95440983731417,15.042857329209314,12.200000000000001,-55,0,20210518105524,418,10,33,41,29.6,75.2
24.806291632563507,121.04036355427878,66.91155253090487,15.000000022800002,12.200000000000001,-55,0,20210518105525,0,0,0,0,0,0
24.80634715591014,121.0403783831434,66.94155264539138,15.030000137286521,12.21,-55,0,20210518105526,419,11,32,39,29.7,75.1
24.806403669500572,121.04039263189728,66.92583829970798,15.014285791603106,12.314285714285715,-55,0,20210518105527,0,0,0,0,0,0
24.806453766191556,121.04040526700788,66.84488560982373,14.933333101718851,12.477777777777776,-55,0,20210518105528,421,12,32,39,29.8,75
24.80650711536364,121.04041964044261,66.90155249274271,14.989999984637832,12.599999999999998,-55,0,20210518105529,0,0,0,0,0,0
24.806553311287775,121.0404320525797,66.99726687124507,15.085714363140253,12.614285714285714,-55,0,20210518105530,423,13,31,38,29.8,74.6
24.806609632820688,121.0404465090679,66.78427992481531,14.87272741671056,12.672727272727274,-55,0,20210518105531,0,0,0,0,0,0
24.806661470526443,121.0404608421069,66.7559969115345,14.844444403429723,12.599999999999998,-55,0,20210518105532,425,14,31,38,29.8,74.4
24.806711779007678,121.04047398031157,66.88155241641837,14.969999908313483,12.599999999999998,-55,0,20210518105533,0,0,0,0,0,0
24.806764019595327,121.04048647024652,66.87155237825621,14.959999870151313,12.599999999999998,-55,0,20210518105534,427,15,30,37,29.8,74.3
24.806816140157515,121.04049900224364,66.59905264963906,14.687500141534287,12.662500000000001,-55,0,20210518105535,0,0,0,0,0,0
24.80687314155507,121.04051333090246,66.75700700676629,14.84545449866151,12.700000000000001,-55,0,20210518105536,428,16,30,37,29.8,74.2
24.806929257039346,121.04052769584466,66.81155236121074,14.899999853105905,12.766666666666666,-55,0,20210518105537,0,0,0,0,0,0
24.806978191987,121.04053972296578,66.77821900663398,14.866666498529144,12.933333333333334,-55,0,20210518105538,430,17,29,36,29.8,74.1
24.807031249711923,121.04055258485954,66.71155272133556,14.80000021323088,13.166666666666668,-55,0,20210518105539,0,0,0,0,0,0
24.807083285397287,121.0405660595139,66.69155264501123,14.780000136906528,13.3,-55,0,20210518105540,418,10,29,36,29.9,74.1
24.807137311899325,121.04058079301734,66.73377481643502,14.822222308330302,13.299999999999999,-55,0,20210518105541,0,0,0,0,0,0
24.8071875718098,121.04059469402766,66.7559969115345,14.844444403429724,13.299999999999999,-55,0,20210518105542,419,11,29,36,29.9,74.2
24.80724141996988,121.0406089700339,66.678219260795,14.766666752690295,13.211111111111114,-55,0,20210518105543,0,0,0,0,0,0
24.80729462011849,121.04062278246968,66.89155245458052,14.979999946475658,13.2,-55,0,20210518105544,421,12,29,36,29.9,74.1
24.8073474078607,121.04063699623381,66.9615526263483,15.050000118243437,13.280000000000001,-55,0,20210518105545,0,0,0,0,0,0
24.807395488568787,121.04064997145352,66.82405219698586,14.912499688880992,13.925,-55,0,20210518105546,423,13,29,36,29.9,74
24.807448299404466,121.0406648657522,66.88155241641837,14.969999908313486,14.51,-55,0,20210518105547,0,0,0,0,0,0
24.807502842772934,121.04067961060636,66.85700686820212,14.945454360097242,14.599999999999996,-55,0,20210518105548,425,14,29,36,29.9,73.9
24.807557774426026,121.04069399697488,66.949052674013,15.037500165908149,14.65,-55,0,20210518105549,0,0,0,0,0,0
24.807612827419515,121.04070784557813,66.91155253090487,15.000000022800002,14.825000000000001,-55,0,20210518105550,427,15,30,37,29.9,73.9
24.807660396363545,121.04072016890599,66.83377445631021,14.922221948205326,14.944444444444445,-55,0,20210518105551,0,0,0,0,0,0
24.80771532701879,121.04073415381318,66.81155214928316,14.899999641178276,15.1,-55,0,20210518105552,428,16,30,37,30,74
24.80776587976396,121.04074629667026,66.7115526021263,14.800000094021586,15.5375,-55,0,20210518105553,0,0,0,0,0,0
24.807819140305373,121.04075998319229,66.7515524925146,14.839999984409838,15.710000000000003,-55,0,20210518105554,418,10,30,37,30.1,73.8
24.807870755302424,121.04077345357645,66.93377483793192,15.022222329827052,15.799999999999999,-55,0,20210518105555,0,0,0,0,0,0
24.80792557545538,121.04078827827645,67.0115525946351,15.10000008653029,15.799999999999999,-55,0,20210518105556,419,11,30,37,30.2,73.4
24.807973897239563,121.04080171084398,67.02266374814863,15.111111240043817,15.799999999999999,-55,0,20210518105557,0,0,0,0,0,0
24.80802716770442,121.04081640491654,66.98933049953571,15.07777799143087,15.788888888888888,-55,0,20210518105558,421,12,30,37,30.1,73.1
24.80808098922778,121.04082995655979,66.75155258788202,14.84000007977727,15.729999999999999,-55,0,20210518105559,0,0,0,0,0,0
24.80813537277938,121.04084410334788,66.7226636629215,14.811111154816775,15.700000000000001,-55,0,20210518105600,423,13,29,36,30.1,73
24.808185516000645,121.04085768209679,66.85599676333726,14.944444255232376,15.700000000000001,-55,0,20210518105601,0,0,0,0,0,0
24.808236499443975,121.0408708857875,66.82405219698586,14.912499688880992,15.700000000000001,-55,0,20210518105602,425,14,29,36,30.1,73
24.80828953135121,121.04088158323601,66.74488565205719,14.833333143952375,15.777777777777775,-55,0,20210518105603,0,0,0,0,0,0
24.808342663544487,121.04089525460144,66.77821911259774,14.86666660449296,15.900000000000002,-55,0,20210518105604,427,15,28,34,30.1,73
24.808393519245456,121.04090765785888,66.85599676333726,14.944444255232376,15.988888888888889,-55,0,20210518105605,0,0,0,0,0,0
24.808447779436293,121.04092190409364,66.82064309306695,14.90909058496207,16.08181818181818,-55,0,20210518105606,428,16,28,34,30.2,73
24.808499826582434,121.04093585788733,66.80044110173343,14.888888593628565,16.099999999999998,-55,0,20210518105607,0,0,0,0,0,0
24.808551474467528,121.04095098261972,66.82973412354839,14.918181615443528,16.054545454545455,-55,0,20210518105608,430,17,28,34,30.1,72.9
24.808604003480436,121.04096587540488,66.97821934602219,15.06666683791734,15.933333333333337,-55,0,20210518105609,0,0,0,0,0,0
24.80865718333373,121.04097929480129,66.88155241641837,14.969999908313483,15.8,-55,0,20210518105610,418,10,28,34,30.1,72.9
24.80871161175801,121.0409925244799,66.86155234009402,14.949999831989139,15.8,-55,0,20210518105611,0,0,0,0,0,0
24.808762246595094,121.04100555364221,66.93377483793192,15.022222329827052,15.833333333333334,-55,0,20210518105612,419,11,28,34,30,73
24.80881109929546,121.041018867148,67.07155256929495,15.16000006119018,15.840000000000003,-55,0,20210518105613,0,0,0,0,0,0
24.808866858928074,121.04103451189307,67.11155242717153,15.199999919066814,15.709090909090907,-55,0,20210518105614,421,12,29,36,30,73.2
24.808921339284453,121.04104804296631,66.94155264539138,15.030000137286521,15.7,-55,0,20210518105615,0,0,0,0,0,0
24.808972160929656,121.04106073413953,66.83377445631021,14.922221948205326,15.700000000000001,-55,0,20210518105616,423,13,29,36,30,73.3
24.80902247979938,121.0410729410589,66.7815525116337,14.870000003528926,15.7,-55,0,20210518105617,0,0,0,0,0,0
24.809076356407825,121.04108675850425,66.81155214928316,14.899999641178276,15.737499999999999,-55,0,20210518105618,425,14,30,37,30,73.4
24.80912979681407,121.04110055150066,66.82973403685072,14.918181528745864,15.818181818181818,-55,0,20210518105619,0,0,0,0,0,0
24.80918068312846,121.04111330743962,66.77405236380281,14.862499855698001,15.900000000000002,-55,0,20210518105620,427,15,31,38,30,73.4
24.809232798703718,121.04112731813234,66.7559969115345,14.844444403429724,15.900000000000002,-55,0,20210518105621,0,0,0,0,0,0
24.80928571738414,121.04114150237791,66.95599714495896,15.044444636854102,15.900000000000002,-55,0,20210518105622,428,16,32,39,30,73.5
24.809333389724586,121.0411538304939,67.0115525946351,15.100000086530295,15.933333333333334,-55,0,20210518105623,0,0,0,0,0,0
24.809388896978433,121.04116896428823,66.8715523782562,14.959999870151314,15.98,-55,0,20210518105624,418,10,32,39,30.1,73.4
24.80944295965854,121.04118296348199,66.833774562274,14.92222205416914,15.944444444444445,-55,0,20210518105625,0,0,0,0,0,0
24.809495430330113,121.04119684919056,66.84488560982372,14.933333101718851,15.922222222222224,-55,0,20210518105626,419,11,33,41,30.1,73.3
24.80954426901285,121.04120911483243,66.86710802281458,14.955555514709717,15.933333333333334,-55,0,20210518105627,0,0,0,0,0,0
24.809601200535088,121.04122332121646,66.7206435784217,14.809091070317008,15.909090909090912,-55,0,20210518105628,421,12,33,41,30,73.2
24.809655628480808,121.04123870078612,66.7559969115345,14.844444403429723,15.900000000000002,-55,0,20210518105629,0,0,0,0,0,0
24.809704566928538,121.0412509919275,66.89905248320217,14.987499975097286,15.900000000000002,-55,0,20210518105630,423,13,33,41,30,73.2
24.809758037264974,121.04126415725162,66.94905267401302,15.037500165908149,15.900000000000002,-55,0,20210518105631,0,0,0,0,0,0
24.809808531040282,121.04127678398382,66.99155283620223,15.080000328097384,15.900000000000002,-55,0,20210518105632,425,14,33,41,29.9,73.3
24.809863125121794,121.04129107113701,66.91155253090487,15.000000022800002,15.911111111111113,-55,0,20210518105633,0,0,0,0,0,0
24.809915801909487,121.04130459394774,66.8115523877017,14.899999879596857,15.975,-55,0,20210518105634,427,15,33,41,29.9,73.5
24.809963449477365,121.04131711951855,66.77821900663395,14.866666498529145,16,-55,0,20210518105635,0,0,0,0,0,0
24.810024167318875,121.04133376966944,66.81155214928316,14.899999641178276,16,-55,0,20210518105636,428,16,32,39,29.8,73.7
24.810073877492712,121.04134701984789,66.76710806504802,14.85555555694325,16,-55,0,20210518105637,0,0,0,0,0,0
24.810118873878487,121.04135975825724,66.949052674013,15.037500165908149,16,-55,0,20210518105638,430,17,32,39,29.7,73.8
24.810175749330405,121.04137537742376,66.76155243530937,14.849999927204566,16,-55,0,20210518105639,0,0,0,0,0,0
24.810194725002052,121.04138306890367,66.84488582175133,14.93333331364648,15.933333333333334,-55,0,20210518105640,418,10,31,38,29.7,74.1
24.810194758170198,121.04138441497574,66.86155234009402,14.949999831989139,15.900000000000002,-55,0,20210518105641,0,0,0,0,0,0
24.810194865908066,121.04138314050523,67.03377479569833,15.122222287593532,24.56666666666667,-55,0,20210518105642,419,11,29,36,29.7,74.4
24.810195433440327,121.04138333240137,67.1365524358793,15.224999927774586,80.3,-55,0,20210518105643,0,0,0,0,0,0
24.810194639719974,121.04139281163144,67.12583838175537,15.214285873650631,99.67142857142856,-55,0,20210518105644,421,12,29,36,29.7,74.5
24.810187931438897,121.04143461232172,66.91155253090487,15.000000022800005,102.37142857142858,-55,0,20210518105645,0,0,0,0,0,0
24.81017758778897,121.0414903830318,66.96155272171572,15.050000213610865,103.55,-55,0,20210518105646,423,13,28,34,29.8,74.5
24.810164370988335,121.04154815483913,66.949052674013,15.037500165908149,103.98750000000001,-55,0,20210518105647,0,0,0,0,0,0
24.81015128486969,121.04160440106038,66.95155268355356,15.040000175448695,104.1,-55,0,20210518105648,425,14,28,34,29.8,74.5
24.810138425712452,121.04166501666711,66.7893300541837,14.877777546078855,104.20000000000002,-55,0,20210518105649,0,0,0,0,0,0
24.810126718679456,121.04172404189745,66.81155214928316,14.899999641178276,104.27777777777776,-55,0,20210518105650,427,15,28,34,29.8,74.5
24.81011580148669,121.0417788363935,66.88655243549945,14.974999927394569,104.35,-55,0,20210518105651,0,0,0,0,0,0
24.8101053995857,121.04183008165089,66.92405257860759,15.012500070502718,104.39999999999999,-55,0,20210518105652,428,16,29,36,29.8,74.3
24.81009237809414,121.0418937524021,66.89155245458055,14.979999946475658,104.47,-55,0,20210518105653,0,0,0,0,0,0
24.810080405806644,121.04195308551985,66.84012368688937,14.928571178784482,104.5,-55,0,20210518105654,418,10,29,36,29.8,74.1
24.81006993320327,121.04200797723543,66.81155214928316,14.899999641178276,104.57142857142857,-55,0,20210518105655,0,0,0,0,0,0
24.810057687036426,121.04207009408772,66.78155232089887,14.86999981279406,104.6,-55,0,20210518105656,419,11,30,37,29.9,74
24.810045385993376,121.04213095118045,66.90044137739136,14.988888869286477,104.62222222222223,-55,0,20210518105657,0,0,0,0,0,0
24.810034178394556,121.042184974896,66.99726714372348,15.085714635618626,104.70000000000002,-55,0,20210518105658,421,12,30,37,29.9,73.9
24.810022497661485,121.04224383458823,66.91155253090488,15.000000022800002,104.70000000000002,-55,0,20210518105659,0,0,0,0,0,0
24.81001058213903,121.04230442972542,66.81155214928316,14.899999641178276,104.74999999999997,-55,0,20210518105700,423,13,31,38,29.9,73.8
24.809999035005646,121.04236124460243,66.82266330279667,14.911110794691801,104.79999999999998,-55,0,20210518105701,0,0,0,0,0,0
24.80998795320831,121.04241586021175,66.88655243549945,14.974999927394572,104.89999999999999,-55,0,20210518105702,425,14,31,38,29.9,73.8
24.80997603136199,121.0424749395931,66.84155226376967,14.929999755664795,104.92999999999999,-55,0,20210518105703,0,0,0,0,0,0
24.80996421500236,121.04253016957601,66.91155253090487,15.000000022800002,105,-55,0,20210518105704,427,15,31,38,29.9,73.7
24.809951815352328,121.04258996456561,66.91155253090487,15.000000022800002,105,-55,0,20210518105705,0,0,0,0,0,0
24.809940209220922,121.04264867409202,66.94155264539138,15.030000137286521,105,-55,0,20210518105706,0,0,0,0,0,0
24.809928735115935,121.04270719284311,66.91155253090487,15.000000022800002,105,-55,0,20210518105707,428,16,31,38,29.8,73.7
24.809917111647437,121.04276423975324,66.87405238779672,14.962499879691856,105,-55,0,20210518105708,0,0,0,0,0,0
24.809904351832515,121.04282723116951,66.81155224465057,14.899999736545709,105,-55,0,20210518105709,430,17,31,38,29.7,73.9
24.8098923001681,121.04288761885911,66.73377481643503,14.822222308330304,105,-55,0,20210518105710,0,0,0,0,0,0
24.809882865090533,121.04293547004443,66.74012398646344,14.82857147835871,105,-55,0,20210518105711,418,10,31,38,29.7,74
24.809871052398737,121.04299327183901,66.78655229229626,14.874999784191425,105,-55,0,20210518105712,0,0,0,0,0,0
24.80986564370308,121.04301947083869,66.67155256868689,14.760000060582177,105.04,-55,0,20210518105713,419,11,31,38,29.8,74.2
24.809864765771138,121.0430200649685,66.871552568991,14.960000060886177,105.25999999999999,-55,0,20210518105714,0,0,0,0,0,0
24.809864556652876,121.043020637023,67.01155291252657,15.100000404421728,129.625,-55,0,20210518105715,421,12,31,38,29.8,74.2
24.809863755956364,121.04302074312821,67.08933024537447,15.177777737269723,18.76666666666667,-55,0,20210518105716,0,0,0,0,0,0
24.80985145072716,121.04301955356136,67.12405250738588,15.212499999281158,-172.7375,-55,0,20210518105717,423,13,31,38,29.8,74.2
24.809803108686552,121.04301124116425,67.11155245968317,15.19999995157844,-169.5125,-55,0,20210518105718,0,0,0,0,0,0
24.809747062001165,121.04300143162146,66.87821928229184,14.966666774187058,-168.37777777777777,-55,0,20210518105719,425,14,31,38,29.7,74.2
24.8096951366887,121.04299208204317,66.81155214928314,14.899999641178278,-168.17272727272726,-55,0,20210518105720,0,0,0,0,0,0
24.809637528034845,121.04298148179925,66.80044110173343,14.888888593628565,-168.1,-55,0,20210518105721,427,15,30,37,29.9,74.3
24.809586595879512,121.04297252317025,66.76155243530935,14.849999927204578,-168.1,-55,0,20210518105722,0,0,0,0,0,0
24.809535833130273,121.0429638247449,66.79337043511086,14.881817927006022,-168.09999999999997,-55,0,20210518105723,428,16,30,37,29.8,74.2
24.80948217583241,121.04295498203811,66.80044110173343,14.888888593628565,-168.1,-55,0,20210518105724,0,0,0,0,0,0
24.809431571424216,121.04294608922551,66.82405219698587,14.912499688880992,-168.1,-55,0,20210518105725,418,10,30,37,29.8,74.2
24.809380161554344,121.04293726762009,66.94488599144545,15.033333483340577,-168.1,-55,0,20210518105726,0,0,0,0,0,0
24.80932422593841,121.04292682281559,66.95155268355356,15.040000175448695,-168.09999999999997,-55,0,20210518105727,419,11,30,37,29.8,74.1
24.809267428438158,121.04291697187621,66.83155222560748,14.919999717502622,-168.09999999999997,-55,0,20210518105728,0,0,0,0,0,0
24.809216228143956,121.04290845503121,66.84488560982375,14.933333101718851,-168.1,-55,0,20210518105729,421,12,30,37,29.7,74.1
24.80916443838604,121.04289937766669,66.76155243530937,14.849999927204578,-168.09999999999997,-55,0,20210518105730,0,0,0,0,0,0
24.809110222409277,121.0428901565171,66.7559969115345,14.844444403429723,-168.1,-55,0,20210518105731,423,13,31,38,29.7,74.2
24.80905749762411,121.04288125148481,66.71155246124262,14.799999953137874,-168.09999999999997,-55,0,20210518105732,0,0,0,0,0,0
24.80900410457541,121.04287237157837,66.76155243530937,14.849999927204577,-168.1,-55,0,20210518105733,425,14,31,38,29.7,74.4
24.80895080191659,121.0428625904508,66.83155222560748,14.919999717502622,-168.09999999999997,-55,0,20210518105734,0,0,0,0,0,0
24.808898550450962,121.04285329638637,66.96155272171572,15.050000213610867,-168.1,-55,0,20210518105735,421,12,31,38,29.6,74.5
24.808844420837858,121.04284322077267,66.9226636844184,15.011111176313527,-168.1888888888889,-55,0,20210518105736,0,0,0,0,0,0
24.80878872703875,121.0428343672633,66.94155264539138,15.03000013728652,-168.14999999999998,-55,0,20210518105737,425,14,31,38,29.7,74.5
24.80873608724525,121.0428244969427,66.83155222560748,14.919999717502622,-168.19,-55,0,20210518105738,0,0,0,0,0,0
24.80868375774831,121.04281603589301,66.74488586398478,14.833333355880013,-168.20000000000002,-55,0,20210518105739,428,16,31,38,29.7,74.6
24.80862955006171,121.04280676770429,66.94155264539138,15.03000013728652,-168.20000000000002,-55,0,20210518105740,0,0,0,0,0,0
24.808576082904,121.04279790155229,66.8115524353854,14.899999927280573,-168.22,-55,0,20210518105741,430,17,31,38,29.8,74.6
24.808521228800657,121.04278973800034,66.80044120769723,14.88888869959238,-168.10000000000002,-55,0,20210518105742,0,0,0,0,0,0
24.8084673051691,121.04278114791522,67.0115525946351,15.100000086530292,-167.92222222222225,-55,0,20210518105743,430,17,31,38,29.7,74.4
24.80841573850192,121.0427721733316,66.93155260722921,15.02000009912435,-167.90000000000003,-55,0,20210518105744,0,0,0,0,0,0
24.808362455053572,121.0427628909946,66.8015522064884,14.889999698383537,-167.90000000000003,-55,0,20210518105745,427,15,31,38,29.7,74.5
24.808310632262412,121.04275332257255,66.90044137739136,14.988888869286477,-167.9,-55,0,20210518105746,0,0,0,0,0,0
24.80825890142261,121.04274388825144,66.81155236121074,14.899999853105903,-167.9,-55,0,20210518105747,425,14,31,38,29.6,74.6
24.80820456164471,121.0427340143712,66.85599676333726,14.944444255232376,-167.9,-55,0,20210518105748,0,0,0,0,0,0
24.80815339717195,121.04272487501439,66.81155214928316,14.899999641178276,-168,-55,0,20210518105749,425,14,31,38,29.6,74.7
24.808099825059944,121.04271547825023,66.82266340876046,14.911110900655615,-168,-55,0,20210518105750,0,0,0,0,0,0
24.808044831545292,121.04270532293845,66.73882529259399,14.827272784489262,-168.09999999999997,-55,0,20210518105751,418,10,31,38,29.4,74.9
24.807991200271978,121.04269637353678,66.80044110173343,14.888888593628565,-168.07777777777778,-55,0,20210518105752,0,0,0,0,0,0
24.807936857567256,121.04268753499329,67.06155243576535,15.149999927660577,-168,-55,0,20210518105753,430,17,31,38,29.4,75.1
24.807883006790462,121.04267797233138,66.96155260250643,15.050000094401579,-168,-55,0,20210518105754,0,0,0,0,0,0
24.80782930305959,121.04266893248489,66.93155260722922,15.020000099124347,-168,-55,0,20210518105755,418,10,30,37,29.4,75.4
24.807777730825578,121.04266054301044,66.94488599144545,15.03333348334058,-167.92222222222225,-55,0,20210518105756,0,0,0,0,0,0
24.807727071145848,121.04265241428092,67.00155287436439,15.090000366259558,-167.90000000000003,-55,0,20210518105757,419,11,30,37,29.3,75.5
24.807672078917765,121.04264206267263,66.96609819360762,15.054545685502763,-167.90000000000003,-55,0,20210518105758,0,0,0,0,0,0
24.807616527415444,121.042632945597,67.10044129292417,15.188888784819436,-167.9,-55,0,20210518105759,421,12,30,37,29.3,75.8
24.80756341403538,121.04262322373299,67.07821919782478,15.166666689720012,-167.9,-55,0,20210518105800,0,0,0,0,0,0
24.80751007899233,121.04261352144229,66.85155230193183,14.939999793826967,-167.90000000000003,-55,0,20210518105801,423,13,31,38,29.2,75.8
24.80747181695126,121.04260628206097,66.56155272110766,14.65000021300286,-167.90000000000003,-55,0,20210518105802,0,0,0,0,0,0
24.8074618884033,121.0426047966691,66.76155233994193,14.849999831837144,-168.01999999999995,-55,0,20210518105803,425,14,32,39,29.2,76
24.807462866099986,121.04260469696402,66.66155253052472,14.750000022420002,-168.1375,-55,0,20210518105804,0,0,0,0,0,0
24.80745915901962,121.04260300488669,66.7226636629215,14.811111154816775,-165.3222222222222,-55,0,20210518105805,427,15,32,39,29.2,76.1
24.807432264526273,121.04259240613425,66.98655269791185,15.075000189807009,-160.86249999999998,-55,0,20210518105806,0,0,0,0,0,0
24.80738613875472,121.04257518819334,67.26155243606935,15.349999927964577,-159.2,-55,0,20210518105807,428,16,33,41,29.3,76.2
24.807329053872966,121.04255436233589,67.05700728465483,15.14545477655004,-158.79090909090908,-55,0,20210518105808,0,0,0,0,0,0
24.807279115626663,121.04253586217601,66.77405248301207,14.862499974907296,-158.6375,-55,0,20210518105809,418,10,34,42,29.4,76
24.807226047510643,121.04251619284534,66.81155236121074,14.899999853105903,-158.4666666666667,-55,0,20210518105810,0,0,0,0,0,0
24.80717284872801,121.04249693279321,66.88155251178578,14.970000003680918,-158.40000000000003,-55,0,20210518105811,419,11,34,42,29.4,75.8
24.80712251560589,121.04247796380642,66.94155264539138,15.03000013728652,-158.39000000000001,-55,0,20210518105812,0,0,0,0,0,0
24.80707463525065,121.04245925200712,66.76155231610011,14.849999807995282,-158.29999999999998,-55,0,20210518105813,421,12,34,42,29.4,75.8
24.80702613006145,121.04244155867123,66.71155253060074,14.80000002249601,-158.29999999999998,-55,0,20210518105814,0,0,0,0,0,0
24.806992227303024,121.04242896500418,66.66609791571896,14.75454540761423,-158.34545454545457,-55,0,20210518105815,423,13,34,42,29.3,75.8
24.80698620368653,121.0424271020989,66.79155235906104,14.87999985095623,-158.70000000000002,-55,0,20210518105816,0,0,0,0,0,0
24.806987173366608,121.0424278394231,66.7559969115345,14.844444403429723,-149,-54.98888888888889,0,20210518105817,425,14,34,42,29.3,75.8
24.80698763776121,121.04242734725136,66.76710785312044,14.855555345015615,-93.75555555555555,-55,0,20210518105818,0,0,0,0,0,0
24.806990331401543,121.04241373815908,66.61155255164151,14.70000004353676,-79.14444444444445,-55,0,20210518105819,427,15,33,41,29.3,76
24.80699886927118,121.04237002056213,66.8893304358054,14.977777927700581,-76.14444444444445,-55,0,20210518105820,0,0,0,0,0,0
24.807011465354318,121.04230997120571,67.11155260056688,15.200000092462144,-75.10000000000001,-55,0,20210518105821,428,16,33,41,29.4,76
24.807024277366096,121.04225207141167,66.71155261537177,14.800000107267062,-74.87777777777778,-55,0,20210518105822,0,0,0,0,0,0
24.807036081350123,121.04219424797134,66.86710802281458,14.955555514709715,-74.65555555555557,-55,0,20210518105823,430,17,33,41,29.5,75.8
24.807049109170173,121.04213500664089,66.82155247354757,14.909999965442747,-74.53,-55,0,20210518105824,0,0,0,0,0,0
24.80706192700462,121.04207703256421,66.82155256891497,14.910000060810182,-74.43999999999998,-55,0,20210518105825,418,10,33,41,29.4,75.7
24.807073928196548,121.04202505447151,66.99905274561456,15.087500237509724,-74.3125,-55,0,20210518105826,0,0,0,0,0,0
24.80708571335258,121.0419690444058,66.98155279804007,15.070000289935212,-74.25000000000001,-55,0,20210518105827,419,11,33,41,29.3,75.7
24.8070989200829,121.04190759666263,67.01155265243355,15.100000144328737,-74.20000000000002,-55,0,20210518105828,0,0,0,0,0,0
24.807111448024997,121.04184803186463,66.77405260222135,14.86250009411658,-74.11250000000001,-55,0,20210518105829,421,12,33,41,29.3,75.7
24.807124192830244,121.04178812583456,66.70044124993068,14.788888741825895,-74.10000000000001,-55,0,20210518105830,0,0,0,0,0,0
24.80713521756111,121.04173401987057,66.9226636844184,15.01111117631353,-74.01111111111112,-55,0,20210518105831,423,13,33,41,29.3,75.9
24.80714913080714,121.04167427173677,66.88933022387783,14.977777715772952,-74,-55,0,20210518105832,0,0,0,0,0,0
24.807161380055522,121.04161787494766,67.03377490166216,15.122222393557346,-74,-55,0,20210518105833,425,14,34,42,29.3,76
24.807173086477647,121.04156413924177,66.82266330279667,14.911110794691801,-73.97777777777777,-55,0,20210518105834,0,0,0,0,0,0
24.807186678563554,121.0415008942787,66.95155268355356,15.040000175448693,-73.89999999999999,-55,0,20210518105835,427,15,35,43,29.3,76
24.807199441076353,121.04144525089178,66.98933060549953,15.077778097394678,-73.89999999999999,-55,0,20210518105836,0,0,0,0,0,0
24.80721278690849,121.0413836464733,66.65155239699513,14.739999888890388,-73.87999999999998,-55,0,20210518105837,428,16,35,43,29.3,76.1
24.80722587878531,121.04132453226059,66.74155245435242,14.829999946247666,-73.82,-55,0,20210518105838,0,0,0,0,0,0
24.807238046350797,121.04126734717602,66.96155272171572,15.050000213610865,-73.79999999999998,-55,0,20210518105839,418,10,36,44,29.2,76.2
24.807249244384177,121.04121302764321,67.00044165304922,15.088889144944392,-73.74444444444445,-55,0,20210518105840,0,0,0,0,0,0
24.807259919551473,121.04116301654963,67.0115524790382,15.099999970933412,-73.62727272727274,-55,0,20210518105841,419,11,37,46,29.3,76.3
24.807265609337307,121.04114228341821,66.95599714495897,15.044444636854106,-73.63333333333335,-55,0,20210518105842,0,0,0,0,0,0
24.807265139559433,121.04114380476113,66.75599691153451,14.844444403429723,-73.63333333333333,-55,0,20210518105843,421,12,38,47,29.3,76.3
24.807264629665973,121.04114357743723,66.81155214928316,14.899999641178276,-34.21,-55,0,20210518105844,0,0,0,0,0,0
24.80726533835409,121.04114332807156,66.87821907036432,14.966666562259427,5.711111111111111,-55,0,20210518105845,423,13,38,47,29.3,76.1
24.807287886466092,121.0411478135308,66.91155253090487,15.000000022800002,12.930000000000001,-55,0,20210518105846,0,0,0,0,0,0
24.807335469279344,121.04116025445266,67.02266385411245,15.111111346007629,14.711111111111112,-55,0,20210518105847,425,14,38,47,29.4,76
24.80738595993214,121.04117404408491,67.1215525693709,15.210000061266184,15.410000000000002,-55,0,20210518105848,0,0,0,0,0,0
24.807441508342745,121.04119034503987,67.13377464750091,15.222222139396202,15.588888888888887,-55,0,20210518105849,427,15,38,47,29.4,75.9
24.80749522770359,121.04120571635,67.08155251208969,15.170000003984924,15.619999999999996,-55,0,20210518105850,0,0,0,0,0,0
24.80754496927121,121.04121978732866,67.03377500762598,15.122222499521156,15.700000000000001,-55,0,20210518105851,428,16,38,47,29.5,75.8
24.80759497729772,121.04123323903988,66.79155254979588,14.880000041691096,15.91,-55,0,20210518105852,0,0,0,0,0,0
24.807649045159323,121.04124785320566,66.678219260795,14.766666752690295,16.41111111111111,-55,0,20210518105853,430,17,38,47,29.6,75.6
24.807698509277746,121.0412612736374,66.73155251155767,14.820000003452924,16.5,-55,0,20210518105854,0,0,0,0,0,0
24.807755541117622,121.04127777641209,66.91155262627228,15.000000118167435,16.450000000000003,-55,0,20210518105855,418,10,37,46,29.7,75.4
24.807801848655853,121.04129094825737,66.99905286482387,15.087500356719014,16.400000000000002,-55,0,20210518105856,0,0,0,0,0,0
24.807854350711665,121.04130553606672,67.0515526837055,15.140000175600695,16.300000000000004,-55,0,20210518105857,419,11,37,46,29.7,75.1
24.807909613872088,121.04132085347555,66.9570069897308,15.04545448162598,16.300000000000004,-55,0,20210518105858,0,0,0,0,0,0
24.807962062901343,121.04133547356923,66.7559969115345,14.844444403429724,16.3,-55,0,20210518105859,421,12,36,44,29.8,74.9
24.80801836960799,121.0413510752161,66.97821945198602,15.06666694388115,16.322222222222223,-55,0,20210518105900,0,0,0,0,0,0
24.808066842992346,121.04136396991989,66.98933060549953,15.077778097394678,16.400000000000002,-55,0,20210518105901,0,0,0,0,0,0
24.8081214997972,121.04137809755642,66.94155264539138,15.030000137286521,16.400000000000002,-55,0,20210518105902,0,0,0,0,0,0
24.808174337041493,121.0413922531831,66.88155241641836,14.969999908313486,16.45,-55,0,20210518105903,425,14,34,42,29.7,74.6
24.808223711156046,121.04140601210878,66.94488599144545,15.033333483340577,16.5,-55,0,20210518105904,0,0,0,0,0,0
24.808276402283777,121.04141980698765,66.73882529259399,14.827272784489258,16.654545454545453,-55,0,20210518105905,427,15,33,41,29.7,74.6
24.80833170671146,121.0414342428273,66.5915524541244,14.679999946019644,16.699999999999996,-55,0,20210518105906,0,0,0,0,0,0
24.808383887460977,121.04144873699144,66.5893303505783,14.67777784247352,16.8,-55,0,20210518105907,428,16,32,39,29.7,74.6
24.808437949821478,121.04146392978926,66.69905267363285,14.78750016552816,16.8,-55,0,20210518105908,0,0,0,0,0,0
24.808486474962876,121.04147840926511,66.80044120769723,14.88888869959238,16.744444444444444,-55,0,20210518105909,418,10,31,38,29.7,74.6
24.80854059581418,121.04149379044435,66.98933060549953,15.077778097394678,16.666666666666668,-55,0,20210518105910,0,0,0,0,0,0
24.808589537882128,121.04150726299001,66.96155272171573,15.050000213610867,16.599999999999998,-55,0,20210518105911,419,11,30,37,29.7,74.7
24.808642271398,121.04152209037873,67.01155265243355,15.100000144328737,16.599999999999998,-55,0,20210518105912,0,0,0,0,0,0
24.808677344209226,121.04153226296042,67.02266396007627,15.111111451971444,16.599999999999998,-55,0,20210518105913,421,12,30,37,29.7,74.8
24.80868408133071,121.041535106412,67.0215523784841,15.10999987037932,16.599999999999998,-55,0,20210518105914,0,0,0,0,0,0
24.808683674499356,121.041534534891,66.7893300541837,14.877777546078855,21.044444444444448,-55,0,20210518105915,423,13,29,36,29.6,74.8
24.808684988514713,121.04153468470187,66.73655257832246,14.825000070217731,81.3375,-55,0,20210518105916,0,0,0,0,0,0
24.808683914692676,121.04154276375837,66.81155226849243,14.899999760387567,100.1125,-55,0,20210518105917,425,14,29,36,29.7,74.8
24.8086766414,121.04158029492172,66.73155260692508,14.82000009882036,103.58,-55,0,20210518105918,0,0,0,0,0,0
24.808663813805342,121.04164173885337,66.87518875576971,14.96363624766483,104.10000000000001,-55,0,20210518105919,427,15,29,36,29.6,74.8
24.808650372771886,121.04169783029376,66.94905267401302,15.037500165908149,104.3625,-55,0,20210518105920,0,0,0,0,0,0
24.808637166520953,121.04175685322545,67.00044175901306,15.088889250908203,104.62222222222225,-55,0,20210518105921,428,16,29,36,29.7,74.8
24.808624955709632,121.04181388338255,67.01155291252657,15.100000404421728,104.77777777777776,-55,0,20210518105922,0,0,0,0,0,0
24.808612771069235,121.04187335478034,66.95599714495897,15.044444636854106,104.85555555555555,-55,0,20210518105923,430,17,29,36,29.7,74.8
24.80860090987977,121.04193165164351,66.83655236389784,14.924999855792997,104.925,-55,0,20210518105924,0,0,0,0,0,0
24.808590850405388,121.0419856931295,66.79155245442847,14.879999946323661,105.17999999999999,-55,0,20210518105925,418,10,29,36,29.7,74.8
24.80857888435688,121.04204488683068,66.76710795908423,14.855555450979432,105.76666666666665,-55,0,20210518105926,0,0,0,0,0,0
24.80856628424641,121.0421005337507,66.78155241626631,14.869999908161489,105.74000000000001,-55,0,20210518105927,419,11,28,34,29.8,74.7
24.808555179458043,121.04215854010567,66.82266330279668,14.911110794691801,105.86666666666666,-55,0,20210518105928,0,0,0,0,0,0
24.80854301245288,121.04221707105069,66.94155264539138,15.030000137286521,106.07000000000001,-55,0,20210518105929,421,12,28,34,29.8,74.5
24.808530182422892,121.04227582319001,66.7559969115345,14.844444403429721,106.17777777777779,-55,0,20210518105930,0,0,0,0,0,0
24.808518988990436,121.0423324214787,66.72155266413031,14.81000015602562,106.21000000000001,-55,0,20210518105931,423,13,28,34,29.9,74.5
24.80850570735099,121.04239276723789,66.76609786385242,14.854545355747645,106.29999999999997,-55,0,20210518105932,0,0,0,0,0,0
24.80849247841779,121.04245006329855,66.91155253090487,15.000000022800002,106.18888888888891,-55,0,20210518105933,425,14,28,34,29.9,74.5
24.80847996956505,121.04250029324774,66.99905262640526,15.087500118300436,106.10000000000001,-55,0,20210518105934,0,0,0,0,0,0
24.808466574479766,121.04256249057198,66.88933043580538,14.977777927700583,106,-55,0,20210518105935,427,15,28,34,29.8,74.3
24.80845722349246,121.04262412555454,66.67518894620041,14.763636438095695,106,-55,0,20210518105936,0,0,0,0,0,0
24.808443095266774,121.0426842668084,66.66155253052472,14.750000022420002,106,-55,0,20210518105937,0,0,0,0,0,0
24.808429992789588,121.04274149605355,66.76710795908421,14.855555450979434,105.9222222222222,-55,0,20210518105938,0,0,0,0,0,0
24.80841855074281,121.04278865630899,66.72266355695773,14.811111048852952,105.95555555555556,-55,0,20210518105939,418,10,28,34,29.7,74.4
24.808414019863,121.04280483236212,66.87405238779674,14.962499879691856,106.05,-55,0,20210518105940,0,0,0,0,0,0
24.808415395979246,121.04280212084733,66.88933022387783,14.977777715772952,106.16666666666667,-55,0,20210518105941,428,16,29,36,29.7,74.6
24.80841540632021,121.04280225211278,66.83377445631021,14.922221948205326,149.26666666666668,-55,0,20210518105942,0,0,0,0,0,0
24.808410862139546,121.04280172608418,66.97518913739141,15.063636629286554,-140.68181818181816,-55,0,20210518105943,0,0,0,0,0,0
24.808379652693663,121.0427953771472,67.00155287436439,15.090000366259558,-167.70000000000002,-55,0,20210518105944,0,0,0,0,0,0
24.8083293928405,121.04278463610844,67.12266370591503,15.2111111978103,-167.03333333333333,-55,0,20210518105945,428,16,30,37,29.8,74.6
24.80827188860652,121.04277225788886,66.87405238779674,14.962499879691855,-166.35000000000002,-55,0,20210518105946,0,0,0,0,0,0
24.80822201266434,121.04276090569677,66.85599676333726,14.944444255232376,-165.96666666666667,-55,0,20210518105947,428,16,31,38,29.8,74.5
24.808170246532185,121.04274935191387,66.86155234009404,14.949999831989139,-165.41249999999997,-55,0,20210518105948,0,0,0,0,0,0
24.808117943351284,121.0427372931641,66.89337064333729,14.98181813523242,-165.25454545454548,-55,0,20210518105949,432,18,31,38,29.9,74.5
24.808062942425753,121.04272475245656,66.99155283620223,15.080000328097384,-165.12999999999997,-55,0,20210518105950,0,0,0,0,0,0
24.8080108670466,121.04271307693355,66.9226636844184,15.011111176313527,-165.0111111111111,-55,0,20210518105951,436,20,31,38,29.9,74.4
24.80795863396861,121.042700664221,67.00044165304924,15.088889144944394,-164.9888888888889,-55,0,20210518105952,0,0,0,0,0,0
24.80790674027284,121.04268768331423,66.91155253090487,15.000000022800002,-164.95555555555555,-55,0,20210518105953,437,21,31,38,29.9,74.3
24.80785190690186,121.04267483098599,66.89155245458052,14.979999946475658,-165,-55,0,20210518105954,0,0,0,0,0,0
24.807799659646722,121.04266242612371,66.78155232089888,14.869999812794056,-164.94000000000003,-55,0,20210518105955,434,19,31,38,29.8,74.2
24.807747029371107,121.0426498665039,66.88155241641836,14.969999908313483,-164.90000000000003,-55,0,20210518105956,0,0,0,0,0,0
24.80769427650134,121.04263729257302,66.82266330279667,14.911110794691801,-164.9,-55,0,20210518105957,430,17,31,38,29.8,74.2
24.807644903791754,121.04262564385002,66.84488560982375,14.933333101718851,-164.9,-55,0,20210518105958,0,0,0,0,0,0
24.807591438147213,121.04261283523861,66.7570070067663,14.845454498661514,-164.90000000000003,-55,0,20210518105959,428,16,31,38,29.8,74.3
24.807535346319888,121.04259985205931,66.73155260692508,14.82000009882036,-164.90000000000003,-55,0,20210518110000,0,0,0,0,0,0
24.807481589073515,121.04258770144588,66.76710795908424,14.855555450979432,-164.9888888888889,-55,0,20210518110001,427,15,31,38,29.8,74.2
24.807438254491657,121.04257724006746,66.80044110173343,14.888888593628565,-165.06666666666666,-55,0,20210518110002,0,0,0,0,0,0
24.80741916332355,121.04257263632519,66.57155275926984,14.660000251165034,-165.40999999999997,-55,0,20210518110003,425,14,31,38,29.7,74.3
24.80742015640765,121.04257290521241,66.82155247354757,14.909999965442745,-165.87,-55,0,20210518110004,0,0,0,0,0,0
24.80741906157437,121.0425729532595,67.06155250729093,15.149999999186152,-166,-55,0,20210518110005,423,13,31,38,29.8,74.4
24.807418897044947,121.04257321788737,67.20155258856597,15.290000080461272,-165.99,-55,0,20210518110006,0,0,0,0,0,0
24.807418171990196,121.04257345900022,67.23377481719503,15.322222309090302,-165.9,-55,0,20210518110007,419,11,31,38,29.8,74.4
24.807417635264464,121.0425734873431,67.23377481719501,15.322222309090298,-165.9,-55,0,20210518110008,0,0,0,0,0,0
24.807417924581063,121.0425732578991,67.18933041506853,15.277777906963829,-165.8111111111111,-55,0,20210518110009,418,10,31,38,29.9,74.4
24.80741826661401,121.04257311623047,67.05700711125948,15.145454603154711,-165.79999999999998,-55,0,20210518110010,0,0,0,0,0,0
24.807418516341436,121.04257334353869,67.00155268362953,15.090000175524692,-165.78,-55.629999999999995,0,20210518110011,419,11,31,38,30,74.3
24.807418168977716,121.04257284658851,67.08155251208969,15.170000003984923,-165.70000000000002,-83.53999999999999,0,20210518110012,0,0,0,0,0,0
24.80741806925507,121.04257274457709,67.20155268393339,15.290000175828707,-165.70000000000002,-62.010000000000005,0,20210518110013,421,12,31,38,30.1,74
24.80741788420131,121.04257231762502,67.31155215004316,15.399999641938273,-165.64,-50.60000000000001,0,20210518110014,0,0,0,0,0,0
24.80741785485512,121.0425717729762,67.28155232165888,15.369999813554053,-165.59999999999997,-50.64000000000001,0,20210518110015,423,13,31,38,30.2,73.7
24.80741822284918,121.04257161079074,67.37405250776592,15.462499999661151,-165.4625,-53.10000000000001,0,20210518110016,0,0,0,0,0,0
24.807418620606242,121.04257118146577,69.24488586778487,17.33333335968,-165.2888888888889,-54.911111111111104,0,20210518110017,425,14,31,38,30.2,73.4
24.807418130658785,121.04257156214754,72.51155257409593,20.600000065991065,-165.15454545454543,-54.95454545454545,0,20210518110018,0,0,0,0,0,0
24.80741926091018,121.04257453958238,75.8115524013817,23.899999893276856,-165.1,-54.9375,0,20210518110019,427,15,32,39,30.3,73.2
24.80741944196481,121.04257425015778,78.64488592445838,26.733333416353528,-165.07777777777778,-54.93333333333333,0,20210518110020,0,0,0,0,0,0
24.807419273661377,121.04257356505198,81.7515525153147,29.84000000720984,-165,-54.959999999999994,0,20210518110021,428,16,32,39,30.2,73
24.807418725980856,121.04257255951413,84.3115527208398,32.40000021273502,-165,-54.95714285714285,0,20210518110022,0,0,0,0,0,0
24.807417952459357,121.04257204317109,85.93882521774081,34.02727270963605,-164.94545454545457,-54.91818181818181,0,20210518110023,425,14,33,41,30.2,73.1
24.80741738409218,121.04257178075055,86.76710904912231,34.855556541017485,-165.77777777777777,-54.94444444444443,0,20210518110024,0,0,0,0,0,0
24.80741666112685,121.0425717434961,86.98155187476566,35.069999366660944,59.32000000000001,-54.90999999999999,0,20210518110025,425,14,33,41,30.2,73
24.80741605624751,121.04257238271597,86.87155317159555,34.96000066349072,142.19,-54.970000000000006,0,20210518110026,0,0,0,0,0,0
24.807410332431328,121.0425798259354,86.9715516458686,35.059999137763924,139.06,-54.90999999999999,0,20210518110027,0,0,0,0,0,0
24.807403113530633,121.04258838161687,86.88655294273656,34.9750004346317,138.05,-54.92499999999999,0,20210518110028,0,0,0,0,0,0
24.807399158354873,121.04259428208013,86.8240538963158,34.91250138821094,137.3125,-54.89999999999999,0,20210518110029,421,12,34,42,30.3,72.9
24.80739823834676,121.0425959959023,86.86155332416824,34.9500008160634,158.18,-54.970000000000006,0,20210518110030,0,0,0,0,0,0
24.80739894619067,121.0425962865194,86.98155149329587,35.06999898519125,-173.40000000000003,-54.95,0,20210518110031,0,0,0,0,0,0
24.80738848764874,121.04259237301966,86.8559978533753,34.944445345270445,-166.11111111111114,-55,0,20210518110032,0,0,0,0,0,0
24.80735273781262,121.04257977452033,87.03377503802596,35.12222252992113,-163.2888888888889,-55,0,20210518110033,419,11,35,43,30.3,72.8
